City_ID,City,Lat,Lng,Max Temp,Humidity,Cloudiness,Wind Speed,Country,Date
0,blackmans bay,-43.0167,147.3167,282.22,85,79,4.55,AU,1696444813
1,edinburgh of the seven seas,-37.0676,-12.3116,283.95,67,81,4.98,SH,1696444813
2,opuwo,-18.0607,13.84,301.45,17,1,4.13,,1696444813
3,udachny,66.4167,112.4,271.18,92,100,11.29,RU,1696444813
4,sitka,57.0531,-135.33,284.09,76,75,1.54,US,1696444813
5,avarua,-21.2078,-159.775,297.18,78,40,10.29,CK,1696444813
6,puerto natales,-51.7236,-72.4875,284.4,46,75,16.46,CL,1696444521
7,port lincoln,-34.7333,135.8667,285.81,67,100,4.77,AU,1696444814
8,waitangi,-43.9535,-176.5597,283.61,89,100,4.47,NZ,1696444814
9,anadyr,64.75,177.4833,273.43,80,0,4.0,RU,1696444814
10,ushuaia,-54.8,-68.3,284.96,50,75,2.57,AR,1696444539
11,uludere,37.445,42.8617,285.95,72,3,1.39,TR,1696444814
12,pudasjarvi,65.3833,26.9167,279.19,96,100,1.34,FI,1696444814
13,tanumah,27.1,44.1333,302.61,19,2,4.58,SA,1696444814
14,remire-montjoly,4.9167,-52.2667,306.17,58,20,6.69,GF,1696444814
15,kapa'a,22.0752,-159.319,300.14,84,0,2.06,US,1696444814
16,papatowai,-46.5619,169.4708,284.01,88,100,2.45,NZ,1696444814
17,yellowknife,62.456,-114.3525,281.16,90,75,6.17,CA,1696444814
18,atafu village,-8.5421,-172.5159,301.57,78,100,4.53,TK,1696444815
19,college,64.8569,-147.8028,271.52,92,75,0.0,US,1696444815
20,port elizabeth,-33.918,25.5701,292.65,89,0,4.63,ZA,1696444527
21,velikiy ustyug,60.7644,46.3106,287.97,76,100,7.15,RU,1696444815
22,kralendijk,12.15,-68.2667,305.14,62,0,5.14,BQ,1696444815
23,bredasdorp,-34.5322,20.0403,288.47,96,100,3.4,ZA,1696444815
24,santiago de cao,-7.9589,-79.2392,294.22,78,0,5.66,PE,1696444815
25,chibougamau,49.9168,-74.3659,299.94,47,0,7.72,CA,1696444815
26,island harbour,50.724,-1.2758,289.78,81,100,1.79,GB,1696444815
27,port-aux-francais,-49.35,70.2167,275.02,87,56,17.15,TF,1696444816
28,bagan,54.1001,77.6646,282.88,44,100,3.25,RU,1696444816
29,sorong,-0.8833,131.25,298.2,91,77,3.6,ID,1696444816
30,afaahiti,-17.75,-149.2833,299.08,84,71,9.17,PF,1696444816
31,tura,25.5198,90.2201,295.81,99,100,2.0,IN,1696444816
32,fort stockton,30.894,-102.8793,305.46,45,0,4.12,US,1696444816
33,iturama,-19.7281,-50.1956,308.51,32,39,3.94,BR,1696444816
34,talnakh,69.4865,88.3972,270.71,97,100,2.52,RU,1696444817
35,georgetown,5.4112,100.3354,300.11,89,20,2.24,MY,1696444631
36,punta arenas,-53.15,-70.9167,284.21,54,75,18.52,CL,1696444583
37,karymskoye,51.6167,114.35,275.09,91,14,1.82,RU,1696444817
38,brookings,44.3114,-96.7984,289.92,64,75,6.69,US,1696444610
39,ad diwaniyah,31.9905,44.9306,301.2,39,91,5.4,IQ,1696444817
40,kiuruvesi,63.65,26.6167,279.3,95,43,2.04,FI,1696444817
41,pendleton,45.6721,-118.7886,294.07,55,0,1.79,US,1696444817
42,nemuro,43.3236,145.575,288.47,85,38,5.59,JP,1696444818
43,kasamwa,-2.85,32.4333,297.58,48,44,4.84,TZ,1696444818
44,vermillion,42.7794,-96.9292,291.32,41,5,6.13,US,1696444818
45,margaret river,-33.95,115.0667,284.49,93,100,3.12,AU,1696444818
46,grytviken,-54.2811,-36.5092,276.3,99,83,5.38,GS,1696444818
47,vilyuysk,63.7553,121.6247,272.04,94,100,4.02,RU,1696444818
48,bangar,16.8936,120.4243,299.2,85,100,2.67,PH,1696444818
49,iqaluit,63.7506,-68.5145,274.0,80,75,2.57,CA,1696444819
50,hasaki,35.7333,140.8333,292.2,87,100,3.94,JP,1696444819
51,badger,64.8,-147.5333,271.47,94,100,0.0,US,1696444819
52,port isabel,26.0734,-97.2086,308.17,64,40,7.2,US,1696444681
53,nantucket,41.2835,-70.0995,300.23,83,0,2.57,US,1696444819
54,port mathurin,-19.6833,63.4167,296.65,78,10,4.64,MU,1696444819
55,ilulissat,69.2167,-51.1,272.16,69,75,0.51,GL,1696444819
56,tiksi,71.6872,128.8694,269.82,89,100,0.42,RU,1696444819
57,salbris,47.4242,2.0512,286.46,54,99,1.65,FR,1696444819
58,fortaleza,-3.7227,-38.5247,303.22,58,40,7.72,BR,1696444819
59,colonia,50.9333,6.95,289.8,74,0,2.57,DE,1696444819
60,west island,-12.1568,96.8225,298.14,78,75,8.75,CC,1696444588
61,wailua homesteads,22.0669,-159.378,299.39,84,0,2.06,US,1696444820
62,whitehorse,60.7161,-135.0538,274.32,61,40,1.54,CA,1696444820
63,colares,38.7992,-9.4469,298.76,65,0,4.12,PT,1696444820
64,sivas,39.7916,37.0019,279.5,87,0,4.12,TR,1696444820
65,callao,-12.0667,-77.15,293.31,77,100,3.6,PE,1696444820
66,adamstown,-25.066,-130.1015,293.77,74,100,8.34,PN,1696444820
67,lihue,21.9789,-159.3672,299.73,80,0,2.06,US,1696444755
68,namibe,-15.1961,12.1522,293.69,88,100,2.75,AO,1696444820
69,bilibino,68.0546,166.4372,257.57,97,27,2.2,RU,1696444820
70,dzuunharaa,48.8523,106.4579,278.76,62,100,1.74,MN,1696444821
71,kassala,15.451,36.4,307.22,20,1,3.66,SD,1696444821
72,remontnoye,46.5614,43.6501,288.0,49,1,3.16,RU,1696444821
73,albany,42.6001,-73.9662,303.68,60,0,0.89,US,1696444568
74,petauke,-14.2426,31.3253,298.09,33,53,3.01,ZM,1696444821
75,carnarvon,-24.8667,113.6333,292.25,68,0,9.36,AU,1696444821
76,ust'-kulom,61.6864,53.6902,285.2,85,100,5.85,RU,1696444821
77,ribeira grande,38.5167,-28.7,296.37,94,40,6.71,PT,1696444821
78,svitlovods'k,49.0489,33.2411,290.23,69,100,2.05,UA,1696444821
79,gadzhiyevo,69.2551,33.3362,273.84,79,8,6.05,RU,1696444821
80,banda aceh,5.5577,95.3222,299.4,86,100,5.04,ID,1696444822
81,jamestown,42.097,-79.2353,300.94,49,40,4.63,US,1696444594
82,cabo san lucas,22.8909,-109.9124,307.93,65,75,4.12,MX,1696444612
83,okhotsk,59.3833,143.3,277.11,76,16,0.66,RU,1696444822
84,rio grande,-32.035,-52.0986,293.21,87,100,8.29,BR,1696444569
85,stanley,54.868,-1.6985,287.16,83,75,6.17,GB,1696444699
86,yangjiang,21.85,111.9667,299.21,87,62,1.99,CN,1696444822
87,alaghsas,17.0187,8.0168,307.09,22,0,7.2,NE,1696444704
88,nadym,65.5333,72.5167,276.18,95,100,0.32,RU,1696444822
89,port-cartier,50.0334,-66.8654,284.27,74,100,3.89,CA,1696444724
90,vila franca do campo,37.7167,-25.4333,296.38,89,100,4.97,PT,1696444822
91,al mindak,20.1588,41.2834,298.93,23,0,4.77,SA,1696444822
92,st. john's,47.5649,-52.7093,282.47,78,75,9.26,CA,1696444628
93,pangobilian,8.8011,117.8594,299.62,84,100,1.12,PH,1696444823
94,khandyga,62.6667,135.6,272.82,98,100,1.63,RU,1696444823
95,sungai penuh,-2.0833,101.3833,292.11,95,78,0.25,ID,1696444823
96,constantia,44.1833,28.65,290.76,70,21,5.21,RO,1696444823
97,fomboni,-12.28,43.7425,299.25,79,1,2.93,KM,1696444823
98,puerto aysen,-45.4,-72.7,283.03,91,100,2.43,CL,1696444823
99,chonchi,-42.6128,-73.8092,285.71,80,88,0.17,CL,1696444823
100,tres arroyos,-38.3739,-60.2798,287.98,39,1,7.98,AR,1696444823
101,poronaysk,49.2167,143.1167,282.75,100,100,6.34,RU,1696444823
102,mata-utu,-13.2816,-176.1745,299.92,83,99,6.08,WF,1696444823
103,weno,7.4515,151.8468,300.12,89,40,1.54,FM,1696444823
104,lucapa,-8.4192,20.7447,300.86,30,100,1.51,AO,1696444824
105,antofagasta,-23.65,-70.4,290.75,71,100,5.0,CL,1696444824
106,saipan,15.1355,145.701,300.54,89,40,6.17,MP,1696444824
107,kirakira,-10.4544,161.9205,298.55,90,100,4.25,SB,1696444824
108,deqen,29.9618,90.7188,282.43,90,100,2.0,CN,1696444824
109,sandnessjoen,66.0217,12.6316,278.44,75,75,4.63,NO,1696444824
110,harper,4.375,-7.7169,298.12,80,82,3.31,LR,1696444824
111,gebeit,21.0667,36.3167,302.09,31,0,1.73,SD,1696444824
112,kangding,30.0513,101.9603,285.62,98,93,1.64,CN,1696444825
113,aasiaat,68.7098,-52.8699,269.36,73,74,3.58,GL,1696444825
114,ta`u,-14.2336,-169.5144,299.97,81,33,6.18,AS,1696444825
115,altai,46.3722,96.2583,278.65,46,79,4.02,MN,1696444825
116,yeniseysk,58.4497,92.1703,281.45,84,100,4.02,RU,1696444825
117,fort mcmurray,56.7268,-111.381,283.92,81,75,7.2,CA,1696444740
118,sain alto,23.5833,-103.25,297.07,40,100,1.85,MX,1696444825
119,thunder bay,48.4001,-89.3168,295.14,56,75,6.69,CA,1696444825
120,as samawah,31.332,45.2944,302.24,35,90,7.29,IQ,1696444825
121,ouadda,8.0777,22.4007,294.53,95,68,1.61,CF,1696444825
122,labrador city,52.9463,-66.9114,281.1,66,100,4.63,CA,1696444826
123,hamilton,39.1834,-84.5333,303.93,45,0,5.66,US,1696444065
124,canutama,-6.5339,-64.3831,311.15,30,97,0.75,BR,1696444826
125,olovyannaya,50.95,115.5667,275.95,86,38,2.34,RU,1696444826
126,qaqortoq,60.7167,-46.0333,276.95,71,100,1.01,GL,1696444826
127,villa gesell,-37.2639,-56.973,284.85,71,44,11.91,AR,1696444826
128,puerto ayora,-0.7393,-90.3518,300.13,92,80,2.24,EC,1696444826
129,samokov,42.3333,23.55,287.85,59,35,1.04,BG,1696444826
130,mount gambier,-37.8333,140.7667,280.32,85,77,2.85,AU,1696444826
131,bethel,41.3712,-73.414,303.1,61,0,3.09,US,1696444827
132,dudinka,69.4058,86.1778,269.08,96,91,3.58,RU,1696444659
133,ancud,-41.8697,-73.8203,283.71,74,30,3.37,CL,1696444827
134,veinticinco de mayo,-35.4323,-60.1727,292.03,36,6,5.81,AR,1696444604
135,petropavlovsk-kamchatsky,53.0452,158.6483,281.2,79,40,4.02,RU,1696444827
136,tazovsky,67.4667,78.7,272.77,85,100,4.09,RU,1696444827
137,thompson,55.7435,-97.8558,282.24,76,100,3.09,CA,1696444827
138,odda,60.0691,6.5457,283.58,98,100,1.43,NO,1696444827
139,kingston,17.997,-76.7936,305.68,76,40,6.17,JM,1696444766
140,pangody,65.85,74.4859,275.49,98,100,2.16,RU,1696444827
141,bousso,10.4795,16.7117,301.12,70,70,0.6,TD,1696444827
142,siwa oasis,29.2041,25.5195,299.68,43,31,1.98,EG,1696444827
143,pacific grove,36.6177,-121.9166,302.82,51,0,1.54,US,1696444620
144,fisterra,42.9049,-9.2629,294.27,84,99,1.32,ES,1696444828
145,cutral-co,-38.9469,-69.2089,289.77,10,5,1.79,AR,1696444828
146,hawaiian paradise park,19.5933,-154.9731,300.39,82,0,2.06,US,1696444828
147,kone,-21.0595,164.8658,291.94,80,13,2.73,NC,1696444828
148,port douglas,-16.4833,145.4667,295.6,86,100,1.88,AU,1696444828
149,hauterive,46.0901,3.4459,287.57,69,88,0.98,FR,1696444828
150,saguenay,48.4168,-71.0657,296.21,59,20,3.09,CA,1696444739
151,baturaja,-4.1333,104.1667,297.15,84,51,0.66,ID,1696444828
152,dhuburi,26.0333,89.9667,297.07,98,100,4.63,IN,1696444828
153,barra de santo antonio,-9.4047,-35.5072,302.75,68,3,6.6,BR,1696444829
154,longyearbyen,78.2186,15.6401,272.06,80,75,7.72,SJ,1696444829
155,san patricio,28.017,-97.5169,307.55,58,98,5.21,US,1696444829
156,fale old settlement,-9.3852,-171.2468,301.24,78,94,4.78,TK,1696444829
157,shimoda,34.6667,138.95,292.1,87,100,5.16,JP,1696444829
158,susuman,62.7833,148.1667,272.03,73,41,1.34,RU,1696444829
159,hadzici,43.8222,18.2067,289.78,67,20,4.12,BA,1696444829
160,adam,22.3756,57.5233,302.28,34,28,3.11,OM,1696444829
161,cole harbour,44.6724,-63.4751,291.81,70,75,5.66,CA,1696444555
162,la ronge,55.1001,-105.2842,284.29,71,100,1.54,CA,1696444829
163,gazojak,41.1875,61.4036,293.51,23,56,4.05,TM,1696444829
164,invercargill,-46.4,168.35,283.72,89,100,0.89,NZ,1696444830
165,nar'yan-mar,67.6713,53.087,277.1,78,100,9.39,RU,1696444830
166,gonabad,34.3529,58.6837,296.17,30,52,1.04,IR,1696444830
167,beidao,34.5686,105.8933,286.33,92,100,1.33,CN,1696444830
168,kununurra,-15.7667,128.7333,298.14,83,8,0.51,AU,1696444830
169,bikenibeu village,1.3673,173.1241,300.13,89,75,1.54,KI,1696444830
170,rabo de peixe,37.8,-25.5833,295.88,88,20,4.12,PT,1696444830
171,abha,18.2164,42.5053,296.29,12,0,7.2,SA,1696444830
172,kardla,58.9978,22.7492,287.07,77,0,6.75,EE,1696444830
173,walvis bay,-22.9575,14.5053,288.68,82,7,1.54,,1696444830
174,tolanaro,-25.0319,46.9987,295.19,78,0,7.2,MG,1696444831
175,baukau,51.5526,7.2042,288.69,68,75,1.79,DE,1696444831
176,nishinoomote,30.7333,131.0,296.66,81,100,7.87,JP,1696444831
177,utrik,11.2278,169.8474,301.76,72,100,6.38,MH,1696444831
178,pathein,16.7833,94.7333,298.69,92,93,2.28,MM,1696444831
179,nampula,-15.1165,39.2666,295.28,76,0,2.95,MZ,1696444831
180,eyl,7.9803,49.8164,300.08,80,95,7.21,SO,1696444831
181,umba,66.6871,34.3429,279.48,94,21,0.45,RU,1696444831
182,chelmsford,51.7357,0.4696,289.96,67,96,5.28,GB,1696444831
183,hermanus,-34.4187,19.2345,290.61,86,100,0.81,ZA,1696444831
184,aykhal,66.0,111.5,268.19,93,95,11.62,RU,1696444832
185,kavaratti,10.5669,72.642,300.23,70,19,1.74,IN,1696444832
186,sao francisco,-15.9486,-44.8644,307.96,33,28,1.27,BR,1696444832
187,port alfred,-33.5906,26.891,292.14,89,79,3.52,ZA,1696444832
188,datong,40.0936,113.2914,281.81,32,0,1.93,CN,1696444832
189,srebrenik,44.7078,18.4881,286.51,60,95,0.92,BA,1696444832
190,codrington,-38.2667,141.9667,281.44,73,92,4.78,AU,1696444832
191,mildura,-34.2,142.15,278.75,85,3,3.98,AU,1696444832
192,kutloanong,-27.8333,26.75,295.66,18,2,2.19,ZA,1696444832
193,miquelon,47.0975,-56.3814,286.15,51,14,3.79,PM,1696444751
194,hirara,24.8,125.2833,301.3,89,75,6.69,JP,1696444832
195,olonkinbyen,70.9221,-8.7187,273.11,64,100,6.96,SJ,1696444833
196,vodnyy,63.5046,53.4095,282.27,95,100,4.82,RU,1696444833
197,amungan,15.3652,119.9582,299.45,86,100,1.82,PH,1696444833
198,santo antonio,-6.3106,-35.4789,302.38,44,36,6.99,BR,1696444833
199,mugango,-1.6833,33.7,296.8,60,84,3.88,TZ,1696444833
200,altay,47.8667,88.1167,281.26,64,1,2.15,CN,1696444833
201,kalaoa,19.7286,-155.9817,299.67,72,20,0.45,US,1696444833
202,nyurba,63.2842,118.3319,272.61,70,83,4.02,RU,1696444833
203,linxia chengguanzhen,35.6003,103.2064,282.87,94,100,1.09,CN,1696444834
204,choyr,46.3611,108.3611,278.02,50,1,1.96,MN,1696444834
205,vallenar,-28.5708,-70.7581,299.76,19,99,5.36,CL,1696444834
206,huangshan,29.7114,118.3125,291.0,92,48,1.23,CN,1696444834
207,el bayadh,33.6832,1.0193,295.27,31,40,3.78,DZ,1696444834
208,mount pearl,47.5166,-52.7813,282.01,78,75,9.26,CA,1696444834
209,la mira tumbiscatio,18.6833,-102.2833,304.23,62,74,0.56,MX,1696444835
210,ardestan,33.3761,52.3694,294.47,48,18,2.0,IR,1696444835
211,pisco,-13.7,-76.2167,294.83,78,0,4.12,PE,1696444835
212,hanting,36.7708,119.2108,288.4,66,4,1.98,CN,1696444835
213,caspe,41.234,-0.0395,298.13,56,5,3.3,ES,1696444835
214,vorgashor,67.5833,63.95,274.29,86,89,2.98,RU,1696444835
215,belozersk,60.0326,37.7957,279.81,88,100,10.73,RU,1696444835
216,yuzhno-kurilsk,44.0306,145.8556,287.25,73,100,6.84,RU,1696444836
217,tazacorte,28.629,-17.9293,297.69,88,0,5.14,ES,1696444836
218,east london,-33.0153,27.9116,292.67,82,100,1.03,ZA,1696444836
219,nikolayevsk-on-amure,53.1406,140.73,277.86,97,100,2.0,RU,1696444836
220,galliano,29.4422,-90.2992,304.82,48,40,3.6,US,1696444836
221,muynoq,43.7683,59.0214,290.14,56,89,5.98,UZ,1696444836
222,formosa,-26.1775,-58.1781,293.14,72,100,9.26,AR,1696444836
223,nuuk,64.1835,-51.7216,276.49,65,75,3.09,GL,1696444837
224,isafjordur,66.0755,-23.124,277.17,81,100,1.54,IS,1696444837
225,acajutla,13.5928,-89.8275,302.42,75,20,4.08,SV,1696444837
226,abatskoye,56.2875,70.4555,283.21,75,94,4.06,RU,1696444837
227,sisimiut,66.9395,-53.6735,274.4,77,100,2.44,GL,1696444837
228,creston,41.0586,-94.3614,297.99,68,20,4.63,US,1696444838
229,mejit,10.2753,170.8646,301.27,74,100,7.53,MH,1696444838
230,nema,57.5067,50.5011,286.19,47,33,7.63,RU,1696444838
231,lillehammer,61.1146,10.4674,279.29,80,31,1.47,NO,1696444838
232,dhidhdhoo,6.8833,73.1,300.03,85,100,6.59,MV,1696444838
233,balqash,46.8481,74.995,287.48,57,0,1.96,KZ,1696444839
234,tangalle,6.024,80.7911,298.24,90,100,2.82,LK,1696444839
235,cukai,4.25,103.4167,298.15,90,49,0.98,MY,1696444839
236,passo fundo,-28.2628,-52.4067,297.29,60,75,2.06,BR,1696444839
237,lata,40.1629,-8.3327,291.36,82,0,1.03,PT,1696444839
238,rurrenabaque,-14.4413,-67.5278,311.98,37,20,7.72,BO,1696444839
239,laguna,38.421,-121.4238,302.78,44,0,3.09,US,1696444839
240,sargatskoye,55.6101,73.4972,282.6,62,33,4.14,RU,1696444840
241,al kharijah,25.4514,30.5464,301.46,33,0,6.14,EG,1696444840
242,chinchilla,-26.75,150.6333,290.8,77,97,1.57,AU,1696444840
243,kodiak,57.79,-152.4072,280.88,81,20,6.69,US,1696444574
244,smithers,54.7804,-127.1743,280.33,93,75,0.0,CA,1696444840
245,revda,56.801,59.9303,283.22,73,99,4.84,RU,1696444840
246,hotan,37.0997,79.9269,290.93,21,87,1.15,CN,1696444840
247,karratha,-20.7377,116.8463,298.09,34,0,4.13,AU,1696444841
248,kragero,58.8693,9.4149,285.62,75,100,5.61,NO,1696444841
249,conceicao do mato dentro,-19.0372,-43.425,301.5,54,90,1.91,BR,1696444841
250,graham,47.0529,-122.2943,289.89,83,100,0.0,US,1696444794
251,iskateley,67.6803,53.1512,277.05,78,100,9.39,RU,1696444841
252,dolores hidalgo cuna de la independencia nacional,21.1561,-100.9308,298.03,38,41,2.22,MX,1696444841
253,klyuchi,52.2667,79.1667,282.39,50,100,2.02,RU,1696444842
254,st. paul,44.9444,-93.0933,292.28,71,100,7.72,US,1696444626
255,umm kaddadah,13.6017,26.6876,307.91,28,52,4.66,SD,1696444842
256,macau,22.2006,113.5461,303.07,79,40,3.09,MO,1696444842
257,dalbandin,28.8947,64.4101,300.62,20,0,1.46,PK,1696444842
258,castro alves,-12.7656,-39.4283,302.34,53,88,6.42,BR,1696444842
259,nova sintra,14.8667,-24.7167,297.96,74,51,3.06,CV,1696444842
260,makokou,0.5738,12.8642,295.83,96,99,0.88,GA,1696444842
261,piti village,13.4626,144.6933,298.64,95,100,4.12,GU,1696444842
262,midvagur,62.0511,-7.1939,282.61,93,100,1.54,FO,1696444843
263,cockburn town,21.4612,-71.1419,303.13,70,75,3.6,TC,1696444843
264,ca mau,9.1769,105.15,298.1,92,100,1.81,VN,1696444843
265,ephraim,39.3597,-111.5863,288.04,50,12,2.15,US,1696444843
266,ozark,37.0209,-93.206,292.29,70,100,4.71,US,1696444843
267,inari,68.906,27.0288,272.26,74,14,4.3,FI,1696444843
268,la'ie,21.6477,-157.9253,300.13,86,0,0.89,US,1696444843
269,ust-tsilma,65.441,52.1498,280.16,95,100,1.79,RU,1696444844
270,lampasas,31.2168,-98.2336,306.09,55,40,2.57,US,1696444844
271,arteche,12.2645,125.4048,298.38,91,97,1.92,PH,1696444844
272,minas de marcona,-15.2119,-75.1103,289.79,74,63,6.92,PE,1696444844
273,ardakan,32.31,54.0175,300.76,23,50,5.59,IR,1696444844
274,demre,36.2537,29.9777,296.43,71,0,2.1,TR,1696444844
275,kousa,25.9141,32.7636,304.2,25,9,4.45,EG,1696444844
276,la malbaie,47.6575,-70.1559,291.45,71,62,1.3,CA,1696444845
277,lobito,-12.3481,13.5456,296.37,87,91,2.14,AO,1696444845
278,sanctuary point,-35.1114,150.629,287.45,69,79,9.35,AU,1696444845
279,flekkefjord,58.2971,6.6607,285.9,92,100,5.37,NO,1696444845
280,struer,56.4912,8.5838,287.62,88,100,10.64,DK,1696444845
281,ust-nera,64.5667,143.2,271.6,72,18,1.34,RU,1696444845
282,harrison,30.4091,-89.0436,304.68,58,0,8.23,US,1696444769
283,kheralu,23.8833,72.6167,298.37,45,0,1.14,IN,1696444845
284,murghob,38.1702,73.9667,275.92,48,95,0.83,TJ,1696444846
285,kirensk,57.7853,108.1119,278.72,94,100,4.92,RU,1696444846
286,at taj,24.2049,23.2857,297.26,43,88,3.81,LY,1696444846
287,nakhon nayok,14.1667,101.1,297.78,96,100,0.9,TH,1696444846
288,cadale,2.7603,46.3222,299.62,84,88,6.5,SO,1696444846
289,mil'kovo,55.6078,37.7956,286.23,74,0,6.49,RU,1696444846
290,hithadhoo,-0.6,73.0833,300.75,80,46,6.28,MV,1696444846
291,adzope,6.1069,-3.8619,297.2,94,100,1.12,CI,1696444847
292,ishigaki,24.3448,124.1572,301.22,94,100,5.66,JP,1696444847
293,ust'-kut,56.7938,105.7672,276.73,99,100,1.34,RU,1696444847
294,lebu,-37.6167,-73.65,285.66,68,0,6.62,CL,1696444847
295,geraldton,-28.7667,114.6,284.38,87,0,4.12,AU,1696444847
296,turbat,26.0023,63.044,304.59,44,0,1.92,PK,1696444847
297,saint-joseph,-21.3667,55.6167,293.36,80,36,4.6,RE,1696444848
298,ipora,-16.4419,-51.1178,308.68,28,100,4.54,BR,1696444637
299,chervonohrad,50.391,24.2351,285.12,63,37,3.67,UA,1696444848
300,novaya igirma,57.1334,103.9112,279.11,97,100,1.44,RU,1696444848
301,kayenta,36.7278,-110.2546,289.89,30,0,4.01,US,1696444848
302,hibbing,47.4272,-92.9377,287.9,88,100,4.63,US,1696444848
303,danilov,58.1908,40.1717,283.62,73,34,8.18,RU,1696444848
304,yeraliyev,43.2,51.65,292.42,50,85,9.03,KZ,1696444848
305,mount isa,-20.7333,139.5,290.02,23,18,7.2,AU,1696444849
306,santa quiteria,-4.3319,-40.1567,310.81,17,18,3.76,BR,1696444849
307,tabou,4.423,-7.3528,298.18,80,85,3.76,CI,1696444849
308,alegrete,-29.7831,-55.7919,293.92,62,35,6.31,BR,1696444788
309,khanty-mansiysk,61.0042,69.0019,283.21,66,0,6.0,RU,1696444849
310,natal,-5.795,-35.2094,302.51,58,20,7.2,BR,1696444849
311,pangoa,-12.1167,-73.0,304.7,48,66,1.87,PE,1696444849
312,san antonio de pale,-1.4014,5.6325,298.71,84,39,4.48,GQ,1696444849
313,cabinda,-5.55,12.2,300.23,83,75,3.6,AO,1696444850
314,quthing,-30.4,27.7003,296.88,29,96,1.36,LS,1696444850
315,groningen,53.25,6.75,288.74,79,100,4.63,NL,1696444739
316,guiuan,11.0333,125.7247,301.9,77,18,3.28,PH,1696444850
317,margate,51.3813,1.3862,288.09,72,100,1.79,GB,1696444850
318,ceeldheer,3.8488,47.1806,299.43,82,100,6.06,SO,1696444850
319,kishanganj,26.1167,87.9333,296.63,97,100,6.37,IN,1696444850
320,chernyshevskiy,63.0128,112.4714,270.09,84,83,4.3,RU,1696444850
321,bamboo flat,11.7,92.7167,298.2,94,75,1.03,IN,1696444851
322,bakanas,44.8081,76.2772,287.64,40,75,4.35,KZ,1696444851
323,dzhangala,49.2167,50.3333,288.6,68,99,3.54,KZ,1696444851
324,aquin,18.2833,-73.4,303.58,68,20,2.71,HT,1696444851
325,uba,-21.12,-42.9428,304.88,52,50,3.51,BR,1696444851
326,uturoa,-16.7333,-151.4333,299.0,79,1,10.18,PF,1696444851
327,gaspe,48.8334,-64.4819,289.27,67,40,5.66,CA,1696444851
328,senanga,-16.1167,23.2667,297.98,16,0,4.21,ZM,1696444851
329,trail,49.0998,-117.7022,294.08,47,74,1.8,CA,1696444577
330,nguigmi,14.2495,13.1092,306.02,31,68,5.26,NE,1696444852
331,nouadhibou,20.931,-17.0347,301.14,51,95,7.72,MR,1696444852
332,ilomantsi,62.6716,30.9328,280.76,94,100,2.56,FI,1696444852
333,aleksandrovskoye,44.7142,43.0008,289.47,59,99,1.66,RU,1696444852
334,enewetak,11.3474,162.3373,301.99,77,56,7.11,MH,1696444852
335,nobres,-14.7203,-56.3275,312.88,20,98,3.84,BR,1696444852
336,newport,51.5877,-2.9984,288.45,82,100,6.01,GB,1696444852
337,bathsheba,13.2167,-59.5167,304.49,74,40,8.75,BB,1696444853
338,ilo,-17.6394,-71.3375,293.63,83,75,3.6,PE,1696444853
339,reyes,-14.3167,-67.3833,312.13,37,40,7.72,BO,1696444853
340,praia da vitoria,38.7333,-27.0667,296.35,88,40,7.46,PT,1696444853
341,dunedin,-45.8742,170.5036,284.71,99,100,2.68,NZ,1696444853
342,tsiombe,-25.3,45.4833,294.05,76,0,3.91,MG,1696444853
343,coquimbo,-29.9533,-71.3436,291.0,63,0,7.2,CL,1696444853
344,praia,14.9215,-23.5087,302.45,70,0,4.63,CV,1696444853
345,bairnsdale,-37.8333,147.6167,282.07,99,100,1.34,AU,1696444854
346,keflavik,64.0049,-22.5624,281.1,87,100,4.12,IS,1696444854
347,huazhou,21.6333,110.5833,298.53,86,88,1.78,CN,1696444854
348,pemangkat,1.1667,108.9667,299.6,83,23,1.27,ID,1696444854
349,floro,61.5996,5.0328,283.13,87,75,2.06,NO,1696444854
350,chunskiy,56.0815,99.6342,279.64,76,100,1.16,RU,1696444854
351,mar del plata,-38.0023,-57.5575,286.53,81,75,9.26,AR,1696444649
352,queenstown,-31.8976,26.8753,296.69,40,100,2.09,ZA,1696444855
353,howard springs,-12.497,131.047,300.1,86,28,2.22,AU,1696444855
354,kikwit,-5.041,18.8162,298.21,74,95,0.59,CD,1696444855
355,vilyuchinsk,52.9306,158.4028,281.44,85,99,0.63,RU,1696444855
356,wad az zaki,14.4619,32.2065,309.6,27,97,3.05,SD,1696444855
357,chernomorskoye,45.5039,32.6997,290.98,64,7,4.83,UA,1696444855
358,catanauan,13.5919,122.3231,299.55,86,100,1.24,PH,1696444855
359,ende,-8.8432,121.6623,297.72,81,19,0.47,ID,1696444855
360,norilsk,69.3535,88.2027,271.81,95,99,2.64,RU,1696444856
361,alice springs,-23.7,133.8833,280.9,39,0,0.0,AU,1696444856
362,padang,-0.9492,100.3543,297.18,92,59,1.65,ID,1696444856
363,orta nova,41.3299,15.7107,295.23,73,0,1.03,IT,1696444856
364,mugia,43.1041,-9.2179,294.35,87,97,2.33,ES,1696444856
365,zyryanskoye,56.8306,86.6258,281.21,79,100,3.8,RU,1696444856
366,kudahuvadhoo,2.6708,72.8944,300.75,79,45,3.39,MV,1696444856
367,general villegas,-35.0328,-63.0125,294.3,24,2,5.04,AR,1696444779
368,akdepe,42.0551,59.3788,292.2,28,100,5.21,TM,1696444856
369,alofi,-19.0595,-169.9187,294.09,100,100,9.26,NU,1696444857
370,borovsk,55.2064,36.4861,287.53,82,0,4.51,RU,1696444857
371,jose maria morelos,23.3952,-103.8984,295.21,49,100,0.87,MX,1696444857
372,gamay,12.3854,125.2979,298.41,93,97,2.03,PH,1696444857
373,usogorsk,63.4106,48.6872,286.21,88,100,7.03,RU,1696444857
374,pamandzi,-12.7967,45.2794,299.03,83,0,3.09,YT,1696444857
375,tuscaloosa,33.2098,-87.5692,303.2,48,0,4.12,US,1696444857
376,arkhara,49.4212,130.0842,278.58,92,100,7.15,RU,1696444858
377,porto novo,6.4965,2.6036,301.05,83,100,2.61,BJ,1696444858
378,el granada,37.5027,-122.4694,302.53,47,0,2.57,US,1696444612
379,grandola,38.1772,-8.5668,292.23,74,3,2.51,PT,1696444858
380,san-pedro,4.7485,-6.6363,298.34,84,61,3.59,CI,1696444858
381,ambon,-3.6954,128.1814,299.75,95,40,1.54,ID,1696444858
382,auki,-8.7676,160.7034,298.18,90,100,1.76,SB,1696444858
383,balabac,7.9868,117.0645,300.25,78,100,0.14,PH,1696444859
384,bichura,50.5881,107.6022,280.08,67,1,1.34,RU,1696444859
385,fort bragg,35.139,-79.006,300.73,45,0,4.12,US,1696444859
386,atlantic beach,30.3344,-81.3987,302.71,80,75,9.26,US,1696444859
387,la arena,-5.3466,-80.7109,303.73,44,55,6.22,PE,1696444859
388,caglayancerit,37.7496,37.2962,291.26,41,0,3.04,TR,1696444859
389,luderitz,-26.6481,15.1594,289.46,79,96,6.02,,1696444859
390,fortuna,40.5982,-124.1573,293.34,76,20,0.0,US,1696444860
391,ekibastuz,51.6667,75.3667,285.67,43,100,2.71,KZ,1696444860
392,key west,24.5557,-81.7826,305.15,62,0,5.66,US,1696444567
393,aral,40.5156,81.2636,293.46,26,92,1.82,CN,1696444860
394,ataq,14.5377,46.8319,297.62,47,0,4.89,YE,1696444860
395,vandergrift,40.6028,-79.5648,302.34,33,0,0.89,US,1696444860
396,childress,34.4264,-100.204,300.33,83,75,0.0,US,1696444860
397,magadan,59.5667,150.8,277.89,74,18,2.24,RU,1696444861
398,pandan,14.0453,124.1694,299.97,85,69,4.04,PH,1696444861
399,lake albert,-35.1667,147.3833,280.16,89,81,7.33,AU,1696444861
400,chokwe,-24.5333,32.9833,296.05,53,0,3.73,MZ,1696444861
401,lompoc,34.6391,-120.4579,306.49,50,0,2.06,US,1696444582
402,veraval,20.9,70.3667,299.46,75,1,3.9,IN,1696444861
403,maumere,-8.6199,122.2111,298.72,81,10,0.63,ID,1696444861
404,rakaw,53.9674,27.0562,284.58,76,100,7.23,BY,1696444861
405,vernon,50.2581,-119.2691,292.38,57,97,1.03,CA,1696444756
406,beykonak,36.3257,30.303,297.59,66,1,2.33,TR,1696444862
407,iquique,-20.2208,-70.1431,292.17,70,59,3.95,CL,1696444580
408,taoudenni,22.6783,-3.9836,307.79,15,0,4.37,ML,1696444862
409,toliara,-23.35,43.6667,296.32,64,0,1.34,MG,1696444862
410,ulladulla,-35.35,150.4667,284.69,71,98,8.53,AU,1696444862
411,chu,43.5983,73.7614,288.71,37,13,1.75,KZ,1696444863
412,bargaal,11.2864,51.0773,300.29,80,21,3.72,SO,1696444863
413,luanda,-8.8368,13.2343,298.15,78,20,4.12,AO,1696444581
414,kari,11.2471,10.561,304.07,34,81,3.17,NG,1696444863
415,harstad,68.799,16.5293,275.81,97,100,8.05,NO,1696444863
416,beira,-19.8436,34.8389,293.2,68,0,4.63,MZ,1696444863
417,poltavka,54.3663,71.7632,282.7,61,14,3.95,RU,1696444863
418,santa lucia,27.9117,-15.5407,295.34,78,0,7.2,ES,1696444864
419,safaga,26.7292,33.9365,302.72,42,11,6.44,EG,1696444864
420,portland,45.5234,-122.6762,291.17,89,100,2.06,US,1696444835
421,jalai nur,49.45,117.7,277.17,74,10,3.46,CN,1696444864
422,mandalgovi,45.7625,106.2708,279.01,44,0,3.83,MN,1696444864
423,al jawf,29.5,38.75,298.06,40,40,4.77,SA,1696444864
424,raduzhny,62.0961,77.475,281.58,95,100,5.33,RU,1696444864
425,goseong,34.9763,128.3236,291.17,56,100,5.96,KR,1696444864
426,naxos,37.1056,25.3764,294.99,72,0,5.81,GR,1696444864
427,irece,-11.3042,-41.8558,306.24,29,98,3.96,BR,1696444865
428,kupang,-10.1667,123.5833,299.47,83,16,2.06,ID,1696444865
429,greytown,-29.0642,30.5928,293.88,47,81,0.85,ZA,1696444865
430,evans,33.5337,-82.1307,302.87,50,40,3.13,US,1696444865
431,guider,9.9342,13.9486,300.57,65,81,1.08,CM,1696444865
432,labytnangi,66.6572,66.4183,278.74,91,100,1.95,RU,1696444688
433,kruisfontein,-34.0033,24.7314,291.42,93,100,1.95,ZA,1696444865
434,el bauga,18.262,33.9081,306.94,11,0,1.04,SD,1696444865
435,cienfuegos,22.1461,-80.4356,306.23,58,40,3.6,CU,1696444866
436,plesetsk,62.708,40.2916,279.3,96,100,4.18,RU,1696444866
437,tirodi,21.6833,79.7,294.8,77,97,2.13,IN,1696444866
438,novo aripuana,-5.1206,-60.3797,312.96,24,98,1.9,BR,1696444866
439,polyarnyy,69.1989,33.4478,274.27,79,9,5.65,RU,1696444866
440,naze,28.3667,129.4833,297.66,90,86,5.54,JP,1696444866
441,brigantine,39.4101,-74.3646,301.04,76,0,3.6,US,1696444866
442,grand-bourg,15.8835,-61.3148,305.26,77,100,6.04,GP,1696444866
443,vydrino,51.485,104.8461,280.94,67,50,2.3,RU,1696444867
444,paracuru,-3.41,-39.0306,300.99,63,13,6.97,BR,1696444867
445,tommot,58.9564,126.2925,271.47,74,99,1.79,RU,1696444867
446,tsarevo,42.1667,27.85,289.26,77,0,2.71,BG,1696444867
447,santarcangelo,44.0633,12.4466,295.66,87,0,2.06,IT,1696444867
448,barra do bugres,-15.0725,-57.1811,312.55,20,95,2.1,BR,1696444635
449,chinde,26.8418,88.0763,289.69,97,100,1.86,NP,1696444867
450,canitas de felipe pescador,23.6,-102.7167,299.63,32,98,4.73,MX,1696444867
451,toppenish,46.3774,-120.3087,298.49,39,0,0.24,US,1696444867
452,ko samui,9.5357,99.9357,301.13,77,100,8.42,TH,1696444830
453,faya-largeau,17.9257,19.1043,304.68,24,9,5.69,TD,1696444868
454,nushki,29.5542,66.0215,297.89,20,0,1.89,PK,1696444868
455,blenheim,-41.516,173.9528,284.08,64,100,0.56,NZ,1696444868
456,al miqdadiyah,33.9786,44.9369,298.47,39,2,2.67,IQ,1696444868
457,new plymouth,-39.0667,174.0833,284.71,90,100,1.8,NZ,1696444868
458,skeldon,5.8833,-57.1333,304.01,61,72,4.27,GY,1696444868
459,ciudad melchor muzquiz,27.8833,-101.5167,306.37,46,100,3.81,MX,1696444868
460,antsiranana,-12.2787,49.2917,297.18,82,15,8.46,MG,1696444868
461,pyt-yakh,60.7499,72.8582,282.96,89,100,4.0,RU,1696444869
462,ajaccio,42.0,8.9167,292.18,83,100,3.09,FR,1696444869
463,igarra,7.2827,6.0878,297.76,89,98,0.59,NG,1696444869
464,pauini,-7.7136,-66.9764,313.55,21,100,1.26,BR,1696444869
465,flying fish cove,-10.4217,105.6791,296.97,88,75,5.14,CX,1696444869
466,vadso,70.0744,29.7487,274.64,80,20,8.75,NO,1696444869
467,belle glade,26.6845,-80.6676,305.94,60,41,5.53,US,1696444869
468,angaur state,6.906,134.13,301.04,78,100,4.88,PW,1696444869
469,greenville,35.6127,-77.3663,299.33,65,75,3.09,US,1696444712
470,isagarh,24.8333,77.8833,295.9,46,6,2.69,IN,1696444869
471,solwezi,-12.1688,26.3894,295.05,38,100,1.05,ZM,1696444870
472,stranraer,54.9023,-5.0273,286.28,91,100,4.3,GB,1696444870
473,tela,15.7833,-87.45,306.12,66,40,3.09,HN,1696444870
474,barcelos,41.5388,-8.6151,296.44,87,99,0.82,PT,1696444870
475,tarancon,40.0085,-3.0073,296.73,35,0,2.18,ES,1696444636
476,ulety,51.3572,112.4849,276.29,84,3,2.11,RU,1696444870
477,tual,-5.6667,132.75,299.56,83,95,7.01,ID,1696444870
478,kongsvinger,60.1905,11.9977,282.52,77,44,0.5,NO,1696444870
479,porto murtinho,-21.6989,-57.8825,304.93,44,92,5.94,BR,1696444870
480,misawa,40.6836,141.3597,288.49,94,100,2.12,JP,1696444871
481,kapuskasing,49.4169,-82.4331,300.2,41,75,10.8,CA,1696444622
482,vorkuta,67.5,64.0,274.32,87,82,2.94,RU,1696444871
483,fushe-kruje,41.4783,19.7178,292.23,88,0,0.0,AL,1696444871
484,broome,42.2506,-75.833,303.16,63,0,4.12,US,1696444871
485,akureyri,65.6835,-18.0878,278.11,81,75,2.06,IS,1696444871
486,palmanova,45.9064,13.3119,294.02,61,100,3.09,IT,1696444871
487,seven pagodas,12.6264,80.1722,303.18,82,31,6.06,IN,1696444871
488,crane,31.3974,-102.3501,303.75,49,100,6.45,US,1696444871
489,guane,22.2025,-84.0875,303.0,70,83,3.91,CU,1696444871
490,papao,-17.75,-149.55,299.97,82,15,10.72,PF,1696444871
491,ambovombe,-25.1667,46.0833,293.68,74,0,4.36,MG,1696444872
492,saudarkrokur,65.7461,-19.6394,277.81,78,98,2.37,IS,1696444872
493,nanao,37.05,136.9667,294.47,75,100,5.68,JP,1696444872
494,la sarre,48.8002,-79.1996,300.75,44,2,7.16,CA,1696444872
495,muisne,0.6,-80.0333,299.45,71,41,4.29,EC,1696444872
496,hilo,19.7297,-155.09,302.19,73,0,2.06,US,1696444872
497,beatrice,40.2681,-96.747,293.25,60,0,5.14,US,1696444872
498,bani walid,31.7566,13.9942,295.84,61,72,6.6,LY,1696444872
499,guerrero negro,27.9769,-114.0611,299.03,50,0,3.0,MX,1696444872
500,raja,8.4596,25.678,296.4,83,64,1.52,SS,1696444873
501,chui,-33.6971,-53.4616,288.87,75,100,4.67,UY,1696444873
502,timbuktu,16.7735,-3.0074,308.09,25,93,4.39,ML,1696444873
503,rio gallegos,-51.6226,-69.2181,290.18,27,0,14.4,AR,1696444829
504,egilsstadir,65.2653,-14.3948,278.1,70,75,4.63,IS,1696444873
505,ciudad lazaro cardenas,17.9583,-102.2,304.45,65,20,3.19,MX,1696444873
506,buta,2.7858,24.73,294.06,97,100,0.57,CD,1696444873
507,port moresby,-9.4431,147.1797,295.87,90,82,2.78,PG,1696444839
508,petrovsk,52.3064,45.3917,283.07,57,71,4.14,RU,1696444873
509,souillac,-20.5167,57.5167,296.36,88,75,5.66,MU,1696444873
510,markala,13.7021,-6.0659,307.19,27,100,2.96,ML,1696444873
511,rajaori,33.3833,74.3,293.11,32,0,3.15,IN,1696444874
512,oral,51.2333,51.3667,287.14,67,0,5.0,KZ,1696444874
513,llanes,43.4198,-4.7549,292.78,83,53,3.63,ES,1696444874
514,saint-philippe,-21.3585,55.7679,293.92,81,74,4.22,RE,1696444874
515,blackwater,-23.5833,148.8833,292.42,100,36,3.07,AU,1696444874
516,sola,-13.8833,167.55,298.97,77,100,11.31,VU,1696444874
517,boguchany,58.3814,97.4531,281.4,90,98,2.68,RU,1696444874
518,minab,27.1467,57.0801,305.08,45,2,0.62,IR,1696444874
519,zeya,53.75,127.2667,272.53,76,0,2.68,RU,1696444874
520,itaituba,-4.2761,-55.9836,310.24,49,20,1.01,BR,1696444875
521,kavalerovo,44.2661,135.0572,282.26,95,85,1.79,RU,1696444875
522,nova xavantina,-14.6667,-52.35,311.86,22,100,1.68,BR,1696444875
523,plettenberg bay,-34.0527,23.3716,290.56,85,100,3.52,ZA,1696444875
524,mahina,-17.5065,-149.489,300.02,74,20,1.03,PF,1696444875
525,colonia general alfredo stroessner,-25.3667,-55.7,294.75,81,100,3.89,PY,1696444875
526,hafar al-batin,28.4328,45.9708,305.47,18,0,6.17,SA,1696444875
527,kasane,-17.8167,25.15,301.2,13,0,5.14,BW,1696444875
528,isangel,-19.55,169.2667,294.21,88,40,2.57,VU,1696444875
529,kayangel,8.0823,134.7173,301.3,78,91,6.4,PW,1696444876
530,andergrove,-21.0833,149.1833,296.29,92,6,1.67,AU,1696444876
531,mwinilunga,-11.7358,24.4293,294.46,37,9,2.45,ZM,1696444876
532,lincheng,19.9078,109.6858,299.17,85,81,1.37,CN,1696444876
533,ketchikan,55.3422,-131.6461,283.41,87,75,2.06,US,1696444792
534,alo,7.4178,6.7371,299.23,88,88,0.81,NG,1696444876
535,igarka,67.4667,86.5833,271.71,90,100,3.82,RU,1696444876
536,mariani,26.6667,94.3333,297.1,97,100,1.26,IN,1696444877
537,meadow lakes,61.6247,-149.6011,278.31,54,0,6.17,US,1696444877
538,amga,60.8953,131.9608,267.58,100,96,0.89,RU,1696444877
539,page,36.9147,-111.4558,294.09,31,0,0.89,US,1696444877
540,prado,-17.3411,-39.2208,299.96,73,0,7.43,BR,1696444877
541,taro,-8.3862,115.28,295.15,96,67,0.72,ID,1696444877
542,kato achaia,38.15,21.55,292.58,63,0,0.0,GR,1696444877
543,ust'-ilimsk,58.0006,102.6619,278.95,91,95,4.47,RU,1696444877
544,saint-louis du nord,19.9333,-72.7167,302.72,74,20,3.21,HT,1696444877
545,kavieng,-2.5744,150.7967,300.23,81,97,3.34,PG,1696444877
546,tinghir,31.5157,-5.5343,297.95,28,100,3.71,MA,1696444878
547,yanam,16.7333,82.2167,298.27,80,10,2.46,IN,1696444878
548,curuzu cuatia,-29.7917,-58.0546,293.49,55,0,6.9,AR,1696444852
549,samux,40.7647,46.4085,288.71,94,100,3.09,AZ,1696444878
550,monrovia,6.3005,-10.7969,299.02,86,12,3.01,LR,1696444878
